{
  "restaurants": [
    {
      "restaurant": {
        "id": "2100702",
        "name": "Barbeque Nation",
        "description": "Barbeque Nation is a restaurant that goes above and beyond the ‘unlimited food’ experience. The brand strives to deliver a great customer experience. So the reinvented BBQ Nation is another step in that direction.",
        "location": {
          "address": "2nd Floor, Adityam Building, Ulubari, Guwahati",
          "city": "Guwahati"
        },
        "cuisines": "North Indian",
        "photos_url": "https://www.businessinsider.in/photo/81662629/barbeque-nation-ipo-issues-opens-today-should-you-subscribe.jpg"
      }
    },
    {
      "restaurant": {
        "id": "16608059",
        "name": "1918 Bistro & Grill",
        "location": {
          "address": "94 Murray St, Tanunda, SA",
          "city": "Tanunda"
        },
        "cuisines": "Modern Australian, Australian",

        "photos_url": "https://media1.agfg.com.au/images/listing/4939/gallery/1918-bistro-grill-12.jpg"
      }
    },
    {
      "restaurant": {
        "name": "Berry Patch Restaurant",
        "location": {
          "address": "49289 Us-30, Westport, OR 97016",
          "city": "Clatskanie"
        },
        "cuisines": "American, Breakfast, Desserts",
        "photos_url": "https://media-cdn.tripadvisor.com/media/photo-o/0c/8e/f8/2d/exterior.jpg"
      }
    },
    {
      "restaurant": {
        "id": "16604896",
        "name": "La Trattoria of Lavandula",
        "location": {
          "address": "350 Hepburn-Newstead Road, Hepburn Springs, VIC",
          "city": "Hepburn Springs"
        },
        "cuisines": "Italian, Fusion, Cafe",
        "photos_url": "https://www.bestrestaurants.com.au/media/s5jpvkl4/2.jpg?width=1200&rnd=132864454952100000"
      }
    },
    {
      "restaurant": {
        "id": "17536645",
        "name": "Jehova es Mi Pastor Tacos y Burritos",
        "location": {
          "address": "135 W. Main Street, Fernley, NV 89408",
          "city": "Fernley"
        },
        "cuisines": "Mexican",
        "photos_url": "https://s3-media0.fl.yelpcdn.com/bphoto/fWCgiPBAAoF_8i-aXxwl9g/l.jpg"
      }
    }
  ]
}
